{
  "type": "FeatureCollection",
  "features": [
    {
      "type": "Feature",
      "id": 0,
      "properties": {
        "mm": 7,
        "SiteID": 100,
        "climatologico": 17.1743,
        "SiteCode": 100,
        "stazioni": "Nusco",
        "SiteName_norm": "Nusco",
        "SiteName": "NUSCO",
        "Elevation": 841
      },
      "geometry": {
        "type": "Point",
        "coordinates": [15.0836, 40.8876]
      }
    },
    {
      "type": "Feature",
      "id": 1,
      "properties": {
        "mm": 7,
        "SiteID": 102,
        "climatologico": 21.1841,
        "SiteCode": 102,
        "stazioni": "Ortanova",
        "SiteName_norm": "Ortanova",
        "SiteName": "ORTANOVA",
        "Elevation": 80
      },
      "geometry": {
        "type": "Point",
        "coordinates": [15.7068, 41.3258]
      }
    },
    {
      "type": "Feature",
      "id": 2,
      "properties": {
        "mm": 7,
        "SiteID": 104,
        "climatologico": 22.27,
        "SiteCode": 104,
        "stazioni": "Ostuni",
        "SiteName_norm": "Ostuni",
        "SiteName": "OSTUNI",
        "Elevation": 115
      },
      "geometry": {
        "type": "Point",
        "coordinates": [17.5741, 40.7437]
      }
    },
    {
      "type": "Feature",
      "id": 3,
      "properties": {
        "mm": 7,
        "SiteID": 108,
        "climatologico": 16.7192,
        "SiteCode": 108,
        "stazioni": "Pescopagano",
        "SiteName_norm": "Pescopagano",
        "SiteName": "PESCOPAGANO",
        "Elevation": 920
      },
      "geometry": {
        "type": "Point",
        "coordinates": [15.3989, 40.8332]
      }
    },
    {
      "type": "Feature",
      "id": 4,
      "properties": {
        "mm": 7,
        "SiteID": 111,
        "climatologico": 22.343,
        "SiteCode": 111,
        "stazioni": "Polignano_a_mare",
        "SiteName_norm": "Polignano_a_mare",
        "SiteName": "POLIGNANO_A_MARE",
        "Elevation": 50
      },
      "geometry": {
        "type": "Point",
        "coordinates": [17.219, 40.9912]
      }
    },
    {
      "type": "Feature",
      "id": 5,
      "properties": {
        "mm": 7,
        "SiteID": 118,
        "climatologico": 21.3328,
        "SiteCode": 118,
        "stazioni": "Ruvo_di_puglia",
        "SiteName_norm": "Ruvo_di_puglia",
        "SiteName": "RUVO_DI_PUGLIA",
        "Elevation": 276
      },
      "geometry": {
        "type": "Point",
        "coordinates": [16.4835, 41.1136]
      }
    },
    {
      "type": "Feature",
      "id": 6,
      "properties": {
        "mm": 7,
        "SiteID": 12,
        "climatologico": 23.1266,
        "SiteCode": 12,
        "stazioni": "Bari_(osservatorio)",
        "SiteName_norm": "Bari_(osservatorio)",
        "SiteName": "BARI_(OSSERVATORIO)",
        "Elevation": 34
      },
      "geometry": {
        "type": "Point",
        "coordinates": [16.8718, 41.1173]
      }
    },
    {
      "type": "Feature",
      "id": 7,
      "properties": {
        "mm": 7,
        "SiteID": 121,
        "climatologico": 20.0387,
        "SiteCode": 121,
        "stazioni": "San_giovanni_rotondo",
        "SiteName_norm": "San_giovanni_rotondo",
        "SiteName": "SAN_GIOVANNI_ROTONDO",
        "Elevation": 572
      },
      "geometry": {
        "type": "Point",
        "coordinates": [15.7088, 41.7067]
      }
    },
    {
      "type": "Feature",
      "id": 8,
      "properties": {
        "mm": 7,
        "SiteID": 127,
        "climatologico": 17.577,
        "SiteCode": 127,
        "stazioni": "San_samuele_di_cafiero",
        "SiteName_norm": "San_samuele_di_cafiero",
        "SiteName": "SAN_SAMUELE_DI_CAFIERO",
        "Elevation": 46
      },
      "geometry": {
        "type": "Point",
        "coordinates": [16.0592, 41.2691]
      }
    },
    {
      "type": "Feature",
      "id": 9,
      "properties": {
        "mm": 7,
        "SiteID": 133,
        "climatologico": 21.3544,
        "SiteCode": 133,
        "stazioni": "San_vito_dei_normanni",
        "SiteName_norm": "San_vito_dei_normanni",
        "SiteName": "SAN_VITO_DEI_NORMANNI",
        "Elevation": 116
      },
      "geometry": {
        "type": "Point",
        "coordinates": [17.7054, 40.6571]
      }
    },
    {
      "type": "Feature",
      "id": 10,
      "properties": {
        "mm": 7,
        "SiteID": 135,
        "climatologico": 19.2878,
        "SiteCode": 135,
        "stazioni": "Spinazzola",
        "SiteName_norm": "Spinazzola",
        "SiteName": "SPINAZZOLA",
        "Elevation": 458
      },
      "geometry": {
        "type": "Point",
        "coordinates": [16.097, 40.9616]
      }
    },
    {
      "type": "Feature",
      "id": 11,
      "properties": {
        "mm": 7,
        "SiteID": 137,
        "climatologico": 21.0223,
        "SiteCode": 137,
        "stazioni": "Talsano",
        "SiteName_norm": "Talsano",
        "SiteName": "TALSANO",
        "Elevation": 37
      },
      "geometry": {
        "type": "Point",
        "coordinates": [17.2728, 40.4102]
      }
    },
    {
      "type": "Feature",
      "id": 12,
      "properties": {
        "mm": 7,
        "SiteID": 138,
        "climatologico": 23.5599,
        "SiteCode": 138,
        "stazioni": "Taranto",
        "SiteName_norm": "Taranto",
        "SiteName": "TARANTO",
        "Elevation": 27
      },
      "geometry": {
        "type": "Point",
        "coordinates": [17.2504, 40.4643]
      }
    },
    {
      "type": "Feature",
      "id": 13,
      "properties": {
        "mm": 7,
        "SiteID": 139,
        "climatologico": 22.1121,
        "SiteCode": 139,
        "stazioni": "Taviano",
        "SiteName_norm": "Taviano",
        "SiteName": "TAVIANO",
        "Elevation": 72
      },
      "geometry": {
        "type": "Point",
        "coordinates": [18.0888, 39.9818]
      }
    },
    {
      "type": "Feature",
      "id": 14,
      "properties": {
        "mm": 7,
        "SiteID": 147,
        "climatologico": 23.0898,
        "SiteCode": 147,
        "stazioni": "Vieste",
        "SiteName_norm": "Vieste",
        "SiteName": "VIESTE",
        "Elevation": 53
      },
      "geometry": {
        "type": "Point",
        "coordinates": [16.1752, 41.88]
      }
    },
    {
      "type": "Feature",
      "id": 15,
      "properties": {
        "mm": 7,
        "SiteID": 15,
        "climatologico": 19.8324,
        "SiteCode": 15,
        "stazioni": "Biccari",
        "SiteName_norm": "Biccari",
        "SiteName": "BICCARI",
        "Elevation": 470
      },
      "geometry": {
        "type": "Point",
        "coordinates": [15.19, 41.392]
      }
    },
    {
      "type": "Feature",
      "id": 16,
      "properties": {
        "mm": 7,
        "SiteID": 22,
        "climatologico": 22.2089,
        "SiteCode": 22,
        "stazioni": "Brindisi",
        "SiteName_norm": "Brindisi",
        "SiteName": "BRINDISI",
        "Elevation": 19
      },
      "geometry": {
        "type": "Point",
        "coordinates": [17.9269, 40.6447]
      }
    },
    {
      "type": "Feature",
      "id": 17,
      "properties": {
        "mm": 7,
        "SiteID": 23,
        "climatologico": 21.1797,
        "SiteCode": 23,
        "stazioni": "Cagnano_varano",
        "SiteName_norm": "Cagnano_varano",
        "SiteName": "CAGNANO_VARANO",
        "Elevation": 181
      },
      "geometry": {
        "type": "Point",
        "coordinates": [15.7696, 41.8262]
      }
    },
    {
      "type": "Feature",
      "id": 18,
      "properties": {
        "mm": 7,
        "SiteID": 27,
        "climatologico": 21.5241,
        "SiteCode": 27,
        "stazioni": "Canosa_di_puglia",
        "SiteName_norm": "Canosa_di_puglia",
        "SiteName": "CANOSA_DI_PUGLIA",
        "Elevation": 154
      },
      "geometry": {
        "type": "Point",
        "coordinates": [16.062, 41.224]
      }
    },
    {
      "type": "Feature",
      "id": 19,
      "properties": {
        "mm": 7,
        "SiteID": 3,
        "climatologico": 20.581,
        "SiteCode": 3,
        "stazioni": "Altamura",
        "SiteName_norm": "Altamura",
        "SiteName": "ALTAMURA",
        "Elevation": 482
      },
      "geometry": {
        "type": "Point",
        "coordinates": [16.5534, 40.8231]
      }
    },
    {
      "type": "Feature",
      "id": 20,
      "properties": {
        "mm": 7,
        "SiteID": 32,
        "climatologico": 17.7601,
        "SiteCode": 32,
        "stazioni": "Castel_del_monte",
        "SiteName_norm": "Castel_del_monte",
        "SiteName": "CASTEL_DEL_MONTE",
        "Elevation": 543
      },
      "geometry": {
        "type": "Point",
        "coordinates": [16.2739, 41.0785]
      }
    },
    {
      "type": "Feature",
      "id": 21,
      "properties": {
        "mm": 7,
        "SiteID": 33,
        "climatologico": 20.4452,
        "SiteCode": 33,
        "stazioni": "Castellana_grotte",
        "SiteName_norm": "Castellana_grotte",
        "SiteName": "CASTELLANA_GROTTE",
        "Elevation": 290
      },
      "geometry": {
        "type": "Point",
        "coordinates": [17.1654, 40.8815]
      }
    },
    {
      "type": "Feature",
      "id": 22,
      "properties": {
        "mm": 7,
        "SiteID": 34,
        "climatologico": 20.197,
        "SiteCode": 34,
        "stazioni": "Castellaneta",
        "SiteName_norm": "Castellaneta",
        "SiteName": "CASTELLANETA",
        "Elevation": 236
      },
      "geometry": {
        "type": "Point",
        "coordinates": [16.9323, 40.6289]
      }
    },
    {
      "type": "Feature",
      "id": 23,
      "properties": {
        "mm": 7,
        "SiteID": 4,
        "climatologico": 16.7477,
        "SiteCode": 4,
        "stazioni": "Andretta",
        "SiteName_norm": "Andretta",
        "SiteName": "ANDRETTA",
        "Elevation": 890
      },
      "geometry": {
        "type": "Point",
        "coordinates": [15.3326, 40.9283]
      }
    },
    {
      "type": "Feature",
      "id": 24,
      "properties": {
        "mm": 7,
        "SiteID": 42,
        "climatologico": 22.2251,
        "SiteCode": 42,
        "stazioni": "Corato",
        "SiteName_norm": "Corato",
        "SiteName": "CORATO",
        "Elevation": 249
      },
      "geometry": {
        "type": "Point",
        "coordinates": [16.4133, 41.1528]
      }
    },
    {
      "type": "Feature",
      "id": 25,
      "properties": {
        "mm": 7,
        "SiteID": 5,
        "climatologico": 21.0624,
        "SiteCode": 5,
        "stazioni": "Andria",
        "SiteName_norm": "Andria",
        "SiteName": "ANDRIA",
        "Elevation": 162
      },
      "geometry": {
        "type": "Point",
        "coordinates": [16.2942, 41.2205]
      }
    },
    {
      "type": "Feature",
      "id": 26,
      "properties": {
        "mm": 7,
        "SiteID": 50,
        "climatologico": 23.1528,
        "SiteCode": 50,
        "stazioni": "Fasano",
        "SiteName_norm": "Fasano",
        "SiteName": "FASANO",
        "Elevation": 121
      },
      "geometry": {
        "type": "Point",
        "coordinates": [17.3583, 40.838]
      }
    },
    {
      "type": "Feature",
      "id": 27,
      "properties": {
        "mm": 7,
        "SiteID": 51,
        "climatologico": 19.5261,
        "SiteCode": 51,
        "stazioni": "Foggia_(ist._sperim._per_cerealicoltura)",
        "SiteName_norm": "Foggia_(ist._sper.le_colture_foragg.)",
        "SiteName": "FOGGIA_(IST._SPER.LE_COLTURE_FORAGG.)",
        "Elevation": 84
      },
      "geometry": {
        "type": "Point",
        "coordinates": [15.5013, 41.4602]
      }
    },
    {
      "type": "Feature",
      "id": 28,
      "properties": {
        "mm": 7,
        "SiteID": 52,
        "climatologico": 21.8578,
        "SiteCode": 52,
        "stazioni": "Foggia_(osservatorio)",
        "SiteName_norm": "Foggia_(osservatorio)",
        "SiteName": "FOGGIA_(OSSERVATORIO)",
        "Elevation": 82
      },
      "geometry": {
        "type": "Point",
        "coordinates": [15.5427, 41.4607]
      }
    },
    {
      "type": "Feature",
      "id": 29,
      "properties": {
        "mm": 7,
        "SiteID": 58,
        "climatologico": 20.3101,
        "SiteCode": 58,
        "stazioni": "Ginosa_marina",
        "SiteName_norm": "Ginosa_marina",
        "SiteName": "GINOSA_MARINA",
        "Elevation": 20
      },
      "geometry": {
        "type": "Point",
        "coordinates": [16.8844, 40.4266]
      }
    },
    {
      "type": "Feature",
      "id": 30,
      "properties": {
        "mm": 7,
        "SiteID": 61,
        "climatologico": 21.4163,
        "SiteCode": 61,
        "stazioni": "Grottaglie",
        "SiteName_norm": "Grottaglie",
        "SiteName": "GROTTAGLIE",
        "Elevation": 140
      },
      "geometry": {
        "type": "Point",
        "coordinates": [17.4414, 40.5393]
      }
    },
    {
      "type": "Feature",
      "id": 31,
      "properties": {
        "mm": 7,
        "SiteID": 62,
        "climatologico": 21.936,
        "SiteCode": 62,
        "stazioni": "Grumo_appula",
        "SiteName_norm": "Grumo_appula",
        "SiteName": "GRUMO_APPULA",
        "Elevation": 191
      },
      "geometry": {
        "type": "Point",
        "coordinates": [16.7104, 41.0117]
      }
    },
    {
      "type": "Feature",
      "id": 32,
      "properties": {
        "mm": 7,
        "SiteID": 66,
        "climatologico": 21.777,
        "SiteCode": 66,
        "stazioni": "Lavello",
        "SiteName_norm": "Lavello",
        "SiteName": "LAVELLO",
        "Elevation": 328
      },
      "geometry": {
        "type": "Point",
        "coordinates": [15.7952, 41.0508]
      }
    },
    {
      "type": "Feature",
      "id": 33,
      "properties": {
        "mm": 7,
        "SiteID": 67,
        "climatologico": 21.1135,
        "SiteCode": 67,
        "stazioni": "Lecce",
        "SiteName_norm": "Lecce",
        "SiteName": "LECCE",
        "Elevation": 50
      },
      "geometry": {
        "type": "Point",
        "coordinates": [18.1675, 40.3583]
      }
    },
    {
      "type": "Feature",
      "id": 34,
      "properties": {
        "mm": 7,
        "SiteID": 68,
        "climatologico": 21.7602,
        "SiteCode": 68,
        "stazioni": "Lesina",
        "SiteName_norm": "Lesina",
        "SiteName": "LESINA",
        "Elevation": 13
      },
      "geometry": {
        "type": "Point",
        "coordinates": [15.3532, 41.8622]
      }
    },
    {
      "type": "Feature",
      "id": 35,
      "properties": {
        "mm": 7,
        "SiteID": 71,
        "climatologico": 20.0173,
        "SiteCode": 71,
        "stazioni": "Locorotondo",
        "SiteName_norm": "Locorotondo",
        "SiteName": "LOCOROTONDO",
        "Elevation": 404
      },
      "geometry": {
        "type": "Point",
        "coordinates": [17.3382, 40.7534]
      }
    },
    {
      "type": "Feature",
      "id": 36,
      "properties": {
        "mm": 7,
        "SiteID": 72,
        "climatologico": 21.9949,
        "SiteCode": 72,
        "stazioni": "Lucera",
        "SiteName_norm": "Lucera",
        "SiteName": "LUCERA",
        "Elevation": 226
      },
      "geometry": {
        "type": "Point",
        "coordinates": [15.3357, 41.5107]
      }
    },
    {
      "type": "Feature",
      "id": 37,
      "properties": {
        "mm": 7,
        "SiteID": 73,
        "climatologico": 21.5795,
        "SiteCode": 73,
        "stazioni": "Maglie",
        "SiteName_norm": "Maglie",
        "SiteName": "MAGLIE",
        "Elevation": 102
      },
      "geometry": {
        "type": "Point",
        "coordinates": [18.2936, 40.119]
      }
    },
    {
      "type": "Feature",
      "id": 38,
      "properties": {
        "mm": 7,
        "SiteID": 75,
        "climatologico": 18.2508,
        "SiteCode": 75,
        "stazioni": "Manfredonia_(bonifica_sipontina)",
        "SiteName_norm": "Manfredonia-bonifica_sipontina",
        "SiteName": "MANFREDONIA-BONIFICA_SIPONTINA",
        "Elevation": 2
      },
      "geometry": {
        "type": "Point",
        "coordinates": [15.8802, 41.5831]
      }
    },
    {
      "type": "Feature",
      "id": 39,
      "properties": {
        "mm": 7,
        "SiteID": 77,
        "climatologico": 23.0248,
        "SiteCode": 77,
        "stazioni": "Massafra",
        "SiteName_norm": "Massafra",
        "SiteName": "MASSAFRA",
        "Elevation": 110
      },
      "geometry": {
        "type": "Point",
        "coordinates": [17.1084, 40.5755]
      }
    },
    {
      "type": "Feature",
      "id": 40,
      "properties": {
        "mm": 7,
        "SiteID": 82,
        "climatologico": 20.1992,
        "SiteCode": 82,
        "stazioni": "Masseria_monteruga",
        "SiteName_norm": "Masseria_monteruga",
        "SiteName": "MASSERIA_MONTERUGA",
        "Elevation": 92
      },
      "geometry": {
        "type": "Point",
        "coordinates": [17.8288, 40.3468]
      }
    },
    {
      "type": "Feature",
      "id": 41,
      "properties": {
        "mm": 7,
        "SiteID": 84,
        "climatologico": 19.0011,
        "SiteCode": 84,
        "stazioni": "Masseria_santa_chiara",
        "SiteName_norm": "Masseria_s._chiara",
        "SiteName": "MASSERIA_S._CHIARA",
        "Elevation": 9
      },
      "geometry": {
        "type": "Point",
        "coordinates": [16.1344, 41.3364]
      }
    },
    {
      "type": "Feature",
      "id": 42,
      "properties": {
        "mm": 7,
        "SiteID": 86,
        "climatologico": 17.5735,
        "SiteCode": 86,
        "stazioni": "Melfi",
        "SiteName_norm": "Melfi",
        "SiteName": "MELFI",
        "Elevation": 533
      },
      "geometry": {
        "type": "Point",
        "coordinates": [15.6272, 40.9891]
      }
    },
    {
      "type": "Feature",
      "id": 43,
      "properties": {
        "mm": 7,
        "SiteID": 88,
        "climatologico": 21.1829,
        "SiteCode": 88,
        "stazioni": "Minervino_di_lecce",
        "SiteName_norm": "Minervino_di_lecce",
        "SiteName": "MINERVINO_DI_LECCE",
        "Elevation": 104
      },
      "geometry": {
        "type": "Point",
        "coordinates": [18.4196, 40.0913]
      }
    },
    {
      "type": "Feature",
      "id": 44,
      "properties": {
        "mm": 7,
        "SiteID": 94,
        "climatologico": 15.7824,
        "SiteCode": 94,
        "stazioni": "Monticchio_bagni",
        "SiteName_norm": "Monticchio_bagni",
        "SiteName": "MONTICCHIO_BAGNI",
        "Elevation": 747
      },
      "geometry": {
        "type": "Point",
        "coordinates": [15.6067, 40.9364]
      }
    }
  ]
} 
