{
  "type": "FeatureCollection",
  "features": [
    {
      "type": "Feature",
      "id": 0,
      "properties": {
        "mm": 12,
        "SiteID": 1,
        "climatologico": 69,
        "SiteCode": 1,
        "stazioni": "Adelfia",
        "SiteName_norm": "Adelfia",
        "SiteName": "ADELFIA",
        "Elevation": 153
      },
      "geometry": {
        "type": "Point",
        "coordinates": [16.8666, 41.0003]
      }
    },
    {
      "type": "Feature",
      "id": 1,
      "properties": {
        "mm": 12,
        "SiteID": 101,
        "climatologico": 106.9917,
        "SiteCode": 101,
        "stazioni": "Orsara_di_puglia",
        "SiteName_norm": "Orsara_di_puglia",
        "SiteName": "ORSARA_DI_PUGLIA",
        "Elevation": 683
      },
      "geometry": {
        "type": "Point",
        "coordinates": [15.2665, 41.2804]
      }
    },
    {
      "type": "Feature",
      "id": 2,
      "properties": {
        "mm": 12,
        "SiteID": 102,
        "climatologico": 57.4667,
        "SiteCode": 102,
        "stazioni": "Ortanova",
        "SiteName_norm": "Ortanova",
        "SiteName": "ORTANOVA",
        "Elevation": 80
      },
      "geometry": {
        "type": "Point",
        "coordinates": [15.7068, 41.3258]
      }
    },
    {
      "type": "Feature",
      "id": 3,
      "properties": {
        "mm": 12,
        "SiteID": 104,
        "climatologico": 90.0917,
        "SiteCode": 104,
        "stazioni": "Ostuni",
        "SiteName_norm": "Ostuni",
        "SiteName": "OSTUNI",
        "Elevation": 115
      },
      "geometry": {
        "type": "Point",
        "coordinates": [17.5741, 40.7437]
      }
    },
    {
      "type": "Feature",
      "id": 4,
      "properties": {
        "mm": 12,
        "SiteID": 111,
        "climatologico": 72.8,
        "SiteCode": 111,
        "stazioni": "Polignano_a_mare",
        "SiteName_norm": "Polignano_a_mare",
        "SiteName": "POLIGNANO_A_MARE",
        "Elevation": 50
      },
      "geometry": {
        "type": "Point",
        "coordinates": [17.219, 40.9912]
      }
    },
    {
      "type": "Feature",
      "id": 5,
      "properties": {
        "mm": 12,
        "SiteID": 112,
        "climatologico": 96.3917,
        "SiteCode": 112,
        "stazioni": "Presicce",
        "SiteName_norm": "Presicce",
        "SiteName": "PRESICCE",
        "Elevation": 105
      },
      "geometry": {
        "type": "Point",
        "coordinates": [18.267, 39.8966]
      }
    },
    {
      "type": "Feature",
      "id": 6,
      "properties": {
        "mm": 12,
        "SiteID": 115,
        "climatologico": 71.3333,
        "SiteCode": 115,
        "stazioni": "Rocchetta_sant'antonio",
        "SiteName_norm": "Rocchetta_s._antonio",
        "SiteName": "ROCCHETTA_S._ANTONIO",
        "Elevation": 679
      },
      "geometry": {
        "type": "Point",
        "coordinates": [15.4655, 41.105]
      }
    },
    {
      "type": "Feature",
      "id": 7,
      "properties": {
        "mm": 12,
        "SiteID": 12,
        "climatologico": 68,
        "SiteCode": 12,
        "stazioni": "Bari_(osservatorio)",
        "SiteName_norm": "Bari_(osservatorio)",
        "SiteName": "BARI_(OSSERVATORIO)",
        "Elevation": 34
      },
      "geometry": {
        "type": "Point",
        "coordinates": [16.8718, 41.1173]
      }
    },
    {
      "type": "Feature",
      "id": 8,
      "properties": {
        "mm": 12,
        "SiteID": 120,
        "climatologico": 64.9417,
        "SiteCode": 120,
        "stazioni": "San_giorgio_jonico",
        "SiteName_norm": "San_giorgio_jonico",
        "SiteName": "SAN_GIORGIO_JONICO",
        "Elevation": 86
      },
      "geometry": {
        "type": "Point",
        "coordinates": [17.3822, 40.4578]
      }
    },
    {
      "type": "Feature",
      "id": 9,
      "properties": {
        "mm": 12,
        "SiteID": 124,
        "climatologico": 74.4833,
        "SiteCode": 124,
        "stazioni": "San_pancrazio_salentino",
        "SiteName_norm": "San_pancrazio_salentino",
        "SiteName": "SAN_PANCRAZIO_SALENTINO",
        "Elevation": 64
      },
      "geometry": {
        "type": "Point",
        "coordinates": [17.8398, 40.4185]
      }
    },
    {
      "type": "Feature",
      "id": 10,
      "properties": {
        "mm": 12,
        "SiteID": 133,
        "climatologico": 90.5167,
        "SiteCode": 133,
        "stazioni": "San_vito_dei_normanni",
        "SiteName_norm": "San_vito_dei_normanni",
        "SiteName": "SAN_VITO_DEI_NORMANNI",
        "Elevation": 116
      },
      "geometry": {
        "type": "Point",
        "coordinates": [17.7054, 40.6571]
      }
    },
    {
      "type": "Feature",
      "id": 11,
      "properties": {
        "mm": 12,
        "SiteID": 134,
        "climatologico": 88.05,
        "SiteCode": 134,
        "stazioni": "Savignano_irpino",
        "SiteName_norm": "Savignano_irpino",
        "SiteName": "SAVIGNANO_IRPINO",
        "Elevation": 718
      },
      "geometry": {
        "type": "Point",
        "coordinates": [15.1836, 41.2248]
      }
    },
    {
      "type": "Feature",
      "id": 12,
      "properties": {
        "mm": 12,
        "SiteID": 135,
        "climatologico": 66.675,
        "SiteCode": 135,
        "stazioni": "Spinazzola",
        "SiteName_norm": "Spinazzola",
        "SiteName": "SPINAZZOLA",
        "Elevation": 458
      },
      "geometry": {
        "type": "Point",
        "coordinates": [16.097, 40.9616]
      }
    },
    {
      "type": "Feature",
      "id": 13,
      "properties": {
        "mm": 12,
        "SiteID": 138,
        "climatologico": 63.2833,
        "SiteCode": 138,
        "stazioni": "Taranto",
        "SiteName_norm": "Taranto",
        "SiteName": "TARANTO",
        "Elevation": 27
      },
      "geometry": {
        "type": "Point",
        "coordinates": [17.2504, 40.4643]
      }
    },
    {
      "type": "Feature",
      "id": 14,
      "properties": {
        "mm": 12,
        "SiteID": 139,
        "climatologico": 78.7333,
        "SiteCode": 139,
        "stazioni": "Taviano",
        "SiteName_norm": "Taviano",
        "SiteName": "TAVIANO",
        "Elevation": 72
      },
      "geometry": {
        "type": "Point",
        "coordinates": [18.0888, 39.9818]
      }
    },
    {
      "type": "Feature",
      "id": 15,
      "properties": {
        "mm": 12,
        "SiteID": 15,
        "climatologico": 95.6333,
        "SiteCode": 15,
        "stazioni": "Biccari",
        "SiteName_norm": "Biccari",
        "SiteName": "BICCARI",
        "Elevation": 470
      },
      "geometry": {
        "type": "Point",
        "coordinates": [15.19, 41.392]
      }
    },
    {
      "type": "Feature",
      "id": 16,
      "properties": {
        "mm": 12,
        "SiteID": 21,
        "climatologico": 101.9417,
        "SiteCode": 21,
        "stazioni": "Bovino",
        "SiteName_norm": "Bovino",
        "SiteName": "BOVINO",
        "Elevation": 620
      },
      "geometry": {
        "type": "Point",
        "coordinates": [15.3375, 41.245]
      }
    },
    {
      "type": "Feature",
      "id": 17,
      "properties": {
        "mm": 12,
        "SiteID": 22,
        "climatologico": 73.225,
        "SiteCode": 22,
        "stazioni": "Brindisi",
        "SiteName_norm": "Brindisi",
        "SiteName": "BRINDISI",
        "Elevation": 19
      },
      "geometry": {
        "type": "Point",
        "coordinates": [17.9269, 40.6447]
      }
    },
    {
      "type": "Feature",
      "id": 18,
      "properties": {
        "mm": 12,
        "SiteID": 23,
        "climatologico": 99.1083,
        "SiteCode": 23,
        "stazioni": "Cagnano_varano",
        "SiteName_norm": "Cagnano_varano",
        "SiteName": "CAGNANO_VARANO",
        "Elevation": 181
      },
      "geometry": {
        "type": "Point",
        "coordinates": [15.7696, 41.8262]
      }
    },
    {
      "type": "Feature",
      "id": 19,
      "properties": {
        "mm": 12,
        "SiteID": 27,
        "climatologico": 63.8,
        "SiteCode": 27,
        "stazioni": "Canosa_di_puglia",
        "SiteName_norm": "Canosa_di_puglia",
        "SiteName": "CANOSA_DI_PUGLIA",
        "Elevation": 154
      },
      "geometry": {
        "type": "Point",
        "coordinates": [16.062, 41.224]
      }
    },
    {
      "type": "Feature",
      "id": 20,
      "properties": {
        "mm": 12,
        "SiteID": 3,
        "climatologico": 65.2417,
        "SiteCode": 3,
        "stazioni": "Altamura",
        "SiteName_norm": "Altamura",
        "SiteName": "ALTAMURA",
        "Elevation": 482
      },
      "geometry": {
        "type": "Point",
        "coordinates": [16.5534, 40.8231]
      }
    },
    {
      "type": "Feature",
      "id": 21,
      "properties": {
        "mm": 12,
        "SiteID": 30,
        "climatologico": 69.825,
        "SiteCode": 30,
        "stazioni": "Casamassima",
        "SiteName_norm": "Casamassima",
        "SiteName": "CASAMASSIMA",
        "Elevation": 229
      },
      "geometry": {
        "type": "Point",
        "coordinates": [16.918, 40.954]
      }
    },
    {
      "type": "Feature",
      "id": 22,
      "properties": {
        "mm": 12,
        "SiteID": 34,
        "climatologico": 65.8263,
        "SiteCode": 34,
        "stazioni": "Castellaneta",
        "SiteName_norm": "Castellaneta",
        "SiteName": "CASTELLANETA",
        "Elevation": 236
      },
      "geometry": {
        "type": "Point",
        "coordinates": [16.9323, 40.6289]
      }
    },
    {
      "type": "Feature",
      "id": 23,
      "properties": {
        "mm": 12,
        "SiteID": 35,
        "climatologico": 68.3,
        "SiteCode": 35,
        "stazioni": "Castelluccio_dei_sauri",
        "SiteName_norm": "Castelluccio_dei_sauri",
        "SiteName": "CASTELLUCCIO_DEI_SAURI",
        "Elevation": 284
      },
      "geometry": {
        "type": "Point",
        "coordinates": [15.4762, 41.3027]
      }
    },
    {
      "type": "Feature",
      "id": 24,
      "properties": {
        "mm": 12,
        "SiteID": 42,
        "climatologico": 71.9171,
        "SiteCode": 42,
        "stazioni": "Corato",
        "SiteName_norm": "Corato",
        "SiteName": "CORATO",
        "Elevation": 249
      },
      "geometry": {
        "type": "Point",
        "coordinates": [16.4133, 41.1528]
      }
    },
    {
      "type": "Feature",
      "id": 25,
      "properties": {
        "mm": 12,
        "SiteID": 52,
        "climatologico": 53.7333,
        "SiteCode": 52,
        "stazioni": "Foggia_(osservatorio)",
        "SiteName_norm": "Foggia_(osservatorio)",
        "SiteName": "FOGGIA_(OSSERVATORIO)",
        "Elevation": 82
      },
      "geometry": {
        "type": "Point",
        "coordinates": [15.5427, 41.4607]
      }
    },
    {
      "type": "Feature",
      "id": 26,
      "properties": {
        "mm": 12,
        "SiteID": 53,
        "climatologico": 50.1167,
        "SiteCode": 53,
        "stazioni": "Fonte_rosa",
        "SiteName_norm": "Fonte_rosa",
        "SiteName": "FONTE_ROSA",
        "Elevation": 25
      },
      "geometry": {
        "type": "Point",
        "coordinates": [15.7743, 41.4343]
      }
    },
    {
      "type": "Feature",
      "id": 27,
      "properties": {
        "mm": 12,
        "SiteID": 57,
        "climatologico": 65.7,
        "SiteCode": 57,
        "stazioni": "Ginosa",
        "SiteName_norm": "Ginosa",
        "SiteName": "GINOSA",
        "Elevation": 272
      },
      "geometry": {
        "type": "Point",
        "coordinates": [16.7575, 40.5768]
      }
    },
    {
      "type": "Feature",
      "id": 28,
      "properties": {
        "mm": 12,
        "SiteID": 65,
        "climatologico": 80.4167,
        "SiteCode": 65,
        "stazioni": "Latiano",
        "SiteName_norm": "Latiano",
        "SiteName": "LATIANO",
        "Elevation": 107
      },
      "geometry": {
        "type": "Point",
        "coordinates": [17.7098, 40.5486]
      }
    },
    {
      "type": "Feature",
      "id": 29,
      "properties": {
        "mm": 12,
        "SiteID": 66,
        "climatologico": 64.975,
        "SiteCode": 66,
        "stazioni": "Lavello",
        "SiteName_norm": "Lavello",
        "SiteName": "LAVELLO",
        "Elevation": 328
      },
      "geometry": {
        "type": "Point",
        "coordinates": [15.7952, 41.0508]
      }
    },
    {
      "type": "Feature",
      "id": 30,
      "properties": {
        "mm": 12,
        "SiteID": 68,
        "climatologico": 83.5583,
        "SiteCode": 68,
        "stazioni": "Lesina",
        "SiteName_norm": "Lesina",
        "SiteName": "LESINA",
        "Elevation": 13
      },
      "geometry": {
        "type": "Point",
        "coordinates": [15.3532, 41.8622]
      }
    },
    {
      "type": "Feature",
      "id": 31,
      "properties": {
        "mm": 12,
        "SiteID": 69,
        "climatologico": 71.9667,
        "SiteCode": 69,
        "stazioni": "Lizzano",
        "SiteName_norm": "Lizzano",
        "SiteName": "LIZZANO",
        "Elevation": 63
      },
      "geometry": {
        "type": "Point",
        "coordinates": [17.4487, 40.3874]
      }
    },
    {
      "type": "Feature",
      "id": 32,
      "properties": {
        "mm": 12,
        "SiteID": 73,
        "climatologico": 88.4417,
        "SiteCode": 73,
        "stazioni": "Maglie",
        "SiteName_norm": "Maglie",
        "SiteName": "MAGLIE",
        "Elevation": 102
      },
      "geometry": {
        "type": "Point",
        "coordinates": [18.2936, 40.119]
      }
    },
    {
      "type": "Feature",
      "id": 33,
      "properties": {
        "mm": 12,
        "SiteID": 82,
        "climatologico": 77.5417,
        "SiteCode": 82,
        "stazioni": "Masseria_monteruga",
        "SiteName_norm": "Masseria_monteruga",
        "SiteName": "MASSERIA_MONTERUGA",
        "Elevation": 92
      },
      "geometry": {
        "type": "Point",
        "coordinates": [17.8288, 40.3468]
      }
    },
    {
      "type": "Feature",
      "id": 34,
      "properties": {
        "mm": 12,
        "SiteID": 84,
        "climatologico": 53.55,
        "SiteCode": 84,
        "stazioni": "Masseria_santa_chiara",
        "SiteName_norm": "Masseria_s._chiara",
        "SiteName": "MASSERIA_S._CHIARA",
        "Elevation": 9
      },
      "geometry": {
        "type": "Point",
        "coordinates": [16.1344, 41.3364]
      }
    },
    {
      "type": "Feature",
      "id": 35,
      "properties": {
        "mm": 12,
        "SiteID": 87,
        "climatologico": 76.7167,
        "SiteCode": 87,
        "stazioni": "Mercadante",
        "SiteName_norm": "Mercadante",
        "SiteName": "MERCADANTE",
        "Elevation": 393
      },
      "geometry": {
        "type": "Point",
        "coordinates": [16.7006, 40.8897]
      }
    },
    {
      "type": "Feature",
      "id": 36,
      "properties": {
        "mm": 12,
        "SiteID": 88,
        "climatologico": 116.4833,
        "SiteCode": 88,
        "stazioni": "Minervino_di_lecce",
        "SiteName_norm": "Minervino_di_lecce",
        "SiteName": "MINERVINO_DI_LECCE",
        "Elevation": 104
      },
      "geometry": {
        "type": "Point",
        "coordinates": [18.4196, 40.0913]
      }
    },
    {
      "type": "Feature",
      "id": 37,
      "properties": {
        "mm": 12,
        "SiteID": 99,
        "climatologico": 72.7583,
        "SiteCode": 99,
        "stazioni": "Novoli",
        "SiteName_norm": "Novoli",
        "SiteName": "NOVOLI",
        "Elevation": 51
      },
      "geometry": {
        "type": "Point",
        "coordinates": [18.0512, 40.3781]
      }
    }
  ]
} 
