{
  "type": "FeatureCollection",
  "features": [
    {
      "type": "Feature",
      "id": 0,
      "properties": {
        "mm": 5,
        "SiteID": 100,
        "climatologico": 72.15,
        "SiteCode": 100,
        "stazioni": "Nusco",
        "SiteName_norm": "Nusco",
        "SiteName": "NUSCO",
        "Elevation": 841
      },
      "geometry": {
        "type": "Point",
        "coordinates": [15.0836, 40.8876]
      }
    },
    {
      "type": "Feature",
      "id": 1,
      "properties": {
        "mm": 5,
        "SiteID": 101,
        "climatologico": 66.0167,
        "SiteCode": 101,
        "stazioni": "Orsara_di_puglia",
        "SiteName_norm": "Orsara_di_puglia",
        "SiteName": "ORSARA_DI_PUGLIA",
        "Elevation": 683
      },
      "geometry": {
        "type": "Point",
        "coordinates": [15.2665, 41.2804]
      }
    },
    {
      "type": "Feature",
      "id": 2,
      "properties": {
        "mm": 5,
        "SiteID": 102,
        "climatologico": 38.55,
        "SiteCode": 102,
        "stazioni": "Ortanova",
        "SiteName_norm": "Ortanova",
        "SiteName": "ORTANOVA",
        "Elevation": 80
      },
      "geometry": {
        "type": "Point",
        "coordinates": [15.7068, 41.3258]
      }
    },
    {
      "type": "Feature",
      "id": 3,
      "properties": {
        "mm": 5,
        "SiteID": 104,
        "climatologico": 40.6333,
        "SiteCode": 104,
        "stazioni": "Ostuni",
        "SiteName_norm": "Ostuni",
        "SiteName": "OSTUNI",
        "Elevation": 115
      },
      "geometry": {
        "type": "Point",
        "coordinates": [17.5741, 40.7437]
      }
    },
    {
      "type": "Feature",
      "id": 4,
      "properties": {
        "mm": 5,
        "SiteID": 105,
        "climatologico": 35.8667,
        "SiteCode": 105,
        "stazioni": "Otranto",
        "SiteName_norm": "Otranto",
        "SiteName": "OTRANTO",
        "Elevation": 29
      },
      "geometry": {
        "type": "Point",
        "coordinates": [18.4885, 40.1438]
      }
    },
    {
      "type": "Feature",
      "id": 5,
      "properties": {
        "mm": 5,
        "SiteID": 109,
        "climatologico": 54.7667,
        "SiteCode": 109,
        "stazioni": "Pietramontecorvino",
        "SiteName_norm": "Pietramontecorvino",
        "SiteName": "PIETRAMONTECORVINO",
        "Elevation": 464
      },
      "geometry": {
        "type": "Point",
        "coordinates": [15.1289, 41.5434]
      }
    },
    {
      "type": "Feature",
      "id": 6,
      "properties": {
        "mm": 5,
        "SiteID": 111,
        "climatologico": 37.025,
        "SiteCode": 111,
        "stazioni": "Polignano_a_mare",
        "SiteName_norm": "Polignano_a_mare",
        "SiteName": "POLIGNANO_A_MARE",
        "Elevation": 50
      },
      "geometry": {
        "type": "Point",
        "coordinates": [17.219, 40.9912]
      }
    },
    {
      "type": "Feature",
      "id": 7,
      "properties": {
        "mm": 5,
        "SiteID": 112,
        "climatologico": 32.675,
        "SiteCode": 112,
        "stazioni": "Presicce",
        "SiteName_norm": "Presicce",
        "SiteName": "PRESICCE",
        "Elevation": 105
      },
      "geometry": {
        "type": "Point",
        "coordinates": [18.267, 39.8966]
      }
    },
    {
      "type": "Feature",
      "id": 8,
      "properties": {
        "mm": 5,
        "SiteID": 114,
        "climatologico": 48.7,
        "SiteCode": 114,
        "stazioni": "Ripacandida",
        "SiteName_norm": "Ripacandida",
        "SiteName": "RIPACANDIDA",
        "Elevation": 658
      },
      "geometry": {
        "type": "Point",
        "coordinates": [15.7358, 40.9161]
      }
    },
    {
      "type": "Feature",
      "id": 9,
      "properties": {
        "mm": 5,
        "SiteID": 115,
        "climatologico": 58.2333,
        "SiteCode": 115,
        "stazioni": "Rocchetta_sant'antonio",
        "SiteName_norm": "Rocchetta_s._antonio",
        "SiteName": "ROCCHETTA_S._ANTONIO",
        "Elevation": 679
      },
      "geometry": {
        "type": "Point",
        "coordinates": [15.4655, 41.105]
      }
    },
    {
      "type": "Feature",
      "id": 10,
      "properties": {
        "mm": 5,
        "SiteID": 117,
        "climatologico": 37.875,
        "SiteCode": 117,
        "stazioni": "Ruffano",
        "SiteName_norm": "Ruffano",
        "SiteName": "RUFFANO",
        "Elevation": 140
      },
      "geometry": {
        "type": "Point",
        "coordinates": [18.247, 39.9826]
      }
    },
    {
      "type": "Feature",
      "id": 11,
      "properties": {
        "mm": 5,
        "SiteID": 118,
        "climatologico": 37.7088,
        "SiteCode": 118,
        "stazioni": "Ruvo_di_puglia",
        "SiteName_norm": "Ruvo_di_puglia",
        "SiteName": "RUVO_DI_PUGLIA",
        "Elevation": 276
      },
      "geometry": {
        "type": "Point",
        "coordinates": [16.4835, 41.1136]
      }
    },
    {
      "type": "Feature",
      "id": 12,
      "properties": {
        "mm": 5,
        "SiteID": 12,
        "climatologico": 34.2417,
        "SiteCode": 12,
        "stazioni": "Bari_(osservatorio)",
        "SiteName_norm": "Bari_(osservatorio)",
        "SiteName": "BARI_(OSSERVATORIO)",
        "Elevation": 34
      },
      "geometry": {
        "type": "Point",
        "coordinates": [16.8718, 41.1173]
      }
    },
    {
      "type": "Feature",
      "id": 13,
      "properties": {
        "mm": 5,
        "SiteID": 120,
        "climatologico": 31.3833,
        "SiteCode": 120,
        "stazioni": "San_giorgio_jonico",
        "SiteName_norm": "San_giorgio_jonico",
        "SiteName": "SAN_GIORGIO_JONICO",
        "Elevation": 86
      },
      "geometry": {
        "type": "Point",
        "coordinates": [17.3822, 40.4578]
      }
    },
    {
      "type": "Feature",
      "id": 14,
      "properties": {
        "mm": 5,
        "SiteID": 121,
        "climatologico": 59.2,
        "SiteCode": 121,
        "stazioni": "San_giovanni_rotondo",
        "SiteName_norm": "San_giovanni_rotondo",
        "SiteName": "SAN_GIOVANNI_ROTONDO",
        "Elevation": 572
      },
      "geometry": {
        "type": "Point",
        "coordinates": [15.7088, 41.7067]
      }
    },
    {
      "type": "Feature",
      "id": 15,
      "properties": {
        "mm": 5,
        "SiteID": 123,
        "climatologico": 53.6983,
        "SiteCode": 123,
        "stazioni": "Sannicandro_garganico",
        "SiteName_norm": "San_nicandro_garganico",
        "SiteName": "SAN_NICANDRO_GARGANICO",
        "Elevation": 236
      },
      "geometry": {
        "type": "Point",
        "coordinates": [15.5625, 41.8371]
      }
    },
    {
      "type": "Feature",
      "id": 16,
      "properties": {
        "mm": 5,
        "SiteID": 124,
        "climatologico": 39.5583,
        "SiteCode": 124,
        "stazioni": "San_pancrazio_salentino",
        "SiteName_norm": "San_pancrazio_salentino",
        "SiteName": "SAN_PANCRAZIO_SALENTINO",
        "Elevation": 64
      },
      "geometry": {
        "type": "Point",
        "coordinates": [17.8398, 40.4185]
      }
    },
    {
      "type": "Feature",
      "id": 17,
      "properties": {
        "mm": 5,
        "SiteID": 126,
        "climatologico": 42,
        "SiteCode": 126,
        "stazioni": "San_pietro_vernotico",
        "SiteName_norm": "San_pietro_vernotico",
        "SiteName": "SAN_PIETRO_VERNOTICO",
        "Elevation": 49
      },
      "geometry": {
        "type": "Point",
        "coordinates": [18.0015, 40.4806]
      }
    },
    {
      "type": "Feature",
      "id": 18,
      "properties": {
        "mm": 5,
        "SiteID": 135,
        "climatologico": 52.7833,
        "SiteCode": 135,
        "stazioni": "Spinazzola",
        "SiteName_norm": "Spinazzola",
        "SiteName": "SPINAZZOLA",
        "Elevation": 458
      },
      "geometry": {
        "type": "Point",
        "coordinates": [16.097, 40.9616]
      }
    },
    {
      "type": "Feature",
      "id": 19,
      "properties": {
        "mm": 5,
        "SiteID": 137,
        "climatologico": 25.275,
        "SiteCode": 137,
        "stazioni": "Talsano",
        "SiteName_norm": "Talsano",
        "SiteName": "TALSANO",
        "Elevation": 37
      },
      "geometry": {
        "type": "Point",
        "coordinates": [17.2728, 40.4102]
      }
    },
    {
      "type": "Feature",
      "id": 20,
      "properties": {
        "mm": 5,
        "SiteID": 138,
        "climatologico": 25.6833,
        "SiteCode": 138,
        "stazioni": "Taranto",
        "SiteName_norm": "Taranto",
        "SiteName": "TARANTO",
        "Elevation": 27
      },
      "geometry": {
        "type": "Point",
        "coordinates": [17.2504, 40.4643]
      }
    },
    {
      "type": "Feature",
      "id": 21,
      "properties": {
        "mm": 5,
        "SiteID": 139,
        "climatologico": 30.7833,
        "SiteCode": 139,
        "stazioni": "Taviano",
        "SiteName_norm": "Taviano",
        "SiteName": "TAVIANO",
        "Elevation": 72
      },
      "geometry": {
        "type": "Point",
        "coordinates": [18.0888, 39.9818]
      }
    },
    {
      "type": "Feature",
      "id": 22,
      "properties": {
        "mm": 5,
        "SiteID": 145,
        "climatologico": 49.125,
        "SiteCode": 145,
        "stazioni": "Venosa",
        "SiteName_norm": "Venosa",
        "SiteName": "VENOSA",
        "Elevation": 426
      },
      "geometry": {
        "type": "Point",
        "coordinates": [15.8106, 40.9642]
      }
    },
    {
      "type": "Feature",
      "id": 23,
      "properties": {
        "mm": 5,
        "SiteID": 147,
        "climatologico": 34.5833,
        "SiteCode": 147,
        "stazioni": "Vieste",
        "SiteName_norm": "Vieste",
        "SiteName": "VIESTE",
        "Elevation": 53
      },
      "geometry": {
        "type": "Point",
        "coordinates": [16.1752, 41.88]
      }
    },
    {
      "type": "Feature",
      "id": 24,
      "properties": {
        "mm": 5,
        "SiteID": 16,
        "climatologico": 62.1833,
        "SiteCode": 16,
        "stazioni": "Bisaccia",
        "SiteName_norm": "Bisaccia",
        "SiteName": "BISACCIA",
        "Elevation": 900
      },
      "geometry": {
        "type": "Point",
        "coordinates": [15.3795, 41.007]
      }
    },
    {
      "type": "Feature",
      "id": 25,
      "properties": {
        "mm": 5,
        "SiteID": 17,
        "climatologico": 31.875,
        "SiteCode": 17,
        "stazioni": "Bisceglie",
        "SiteName_norm": "Bisceglie",
        "SiteName": "BISCEGLIE",
        "Elevation": 32
      },
      "geometry": {
        "type": "Point",
        "coordinates": [16.4968, 41.2382]
      }
    },
    {
      "type": "Feature",
      "id": 26,
      "properties": {
        "mm": 5,
        "SiteID": 19,
        "climatologico": 43.9667,
        "SiteCode": 19,
        "stazioni": "Borgo_liberta",
        "SiteName_norm": "Borgo_liberta",
        "SiteName": "BORGO_LIBERTA",
        "Elevation": 252
      },
      "geometry": {
        "type": "Point",
        "coordinates": [15.7156, 41.1889]
      }
    },
    {
      "type": "Feature",
      "id": 27,
      "properties": {
        "mm": 5,
        "SiteID": 21,
        "climatologico": 58.2333,
        "SiteCode": 21,
        "stazioni": "Bovino",
        "SiteName_norm": "Bovino",
        "SiteName": "BOVINO",
        "Elevation": 620
      },
      "geometry": {
        "type": "Point",
        "coordinates": [15.3375, 41.245]
      }
    },
    {
      "type": "Feature",
      "id": 28,
      "properties": {
        "mm": 5,
        "SiteID": 22,
        "climatologico": 34,
        "SiteCode": 22,
        "stazioni": "Brindisi",
        "SiteName_norm": "Brindisi",
        "SiteName": "BRINDISI",
        "Elevation": 19
      },
      "geometry": {
        "type": "Point",
        "coordinates": [17.9269, 40.6447]
      }
    },
    {
      "type": "Feature",
      "id": 29,
      "properties": {
        "mm": 5,
        "SiteID": 23,
        "climatologico": 61.1083,
        "SiteCode": 23,
        "stazioni": "Cagnano_varano",
        "SiteName_norm": "Cagnano_varano",
        "SiteName": "CAGNANO_VARANO",
        "Elevation": 181
      },
      "geometry": {
        "type": "Point",
        "coordinates": [15.7696, 41.8262]
      }
    },
    {
      "type": "Feature",
      "id": 30,
      "properties": {
        "mm": 5,
        "SiteID": 24,
        "climatologico": 63.1667,
        "SiteCode": 24,
        "stazioni": "Calitri",
        "SiteName_norm": "Calitri",
        "SiteName": "CALITRI",
        "Elevation": 706
      },
      "geometry": {
        "type": "Point",
        "coordinates": [15.4074, 40.9299]
      }
    },
    {
      "type": "Feature",
      "id": 31,
      "properties": {
        "mm": 5,
        "SiteID": 31,
        "climatologico": 41.1917,
        "SiteCode": 31,
        "stazioni": "Cassano_delle_murge",
        "SiteName_norm": "Cassano_murge",
        "SiteName": "CASSANO_MURGE",
        "Elevation": 380
      },
      "geometry": {
        "type": "Point",
        "coordinates": [16.7709, 40.8897]
      }
    },
    {
      "type": "Feature",
      "id": 32,
      "properties": {
        "mm": 5,
        "SiteID": 32,
        "climatologico": 55.2417,
        "SiteCode": 32,
        "stazioni": "Castel_del_monte",
        "SiteName_norm": "Castel_del_monte",
        "SiteName": "CASTEL_DEL_MONTE",
        "Elevation": 543
      },
      "geometry": {
        "type": "Point",
        "coordinates": [16.2739, 41.0785]
      }
    },
    {
      "type": "Feature",
      "id": 33,
      "properties": {
        "mm": 5,
        "SiteID": 33,
        "climatologico": 43.725,
        "SiteCode": 33,
        "stazioni": "Castellana_grotte",
        "SiteName_norm": "Castellana_grotte",
        "SiteName": "CASTELLANA_GROTTE",
        "Elevation": 290
      },
      "geometry": {
        "type": "Point",
        "coordinates": [17.1654, 40.8815]
      }
    },
    {
      "type": "Feature",
      "id": 34,
      "properties": {
        "mm": 5,
        "SiteID": 34,
        "climatologico": 37.125,
        "SiteCode": 34,
        "stazioni": "Castellaneta",
        "SiteName_norm": "Castellaneta",
        "SiteName": "CASTELLANETA",
        "Elevation": 236
      },
      "geometry": {
        "type": "Point",
        "coordinates": [16.9323, 40.6289]
      }
    },
    {
      "type": "Feature",
      "id": 35,
      "properties": {
        "mm": 5,
        "SiteID": 35,
        "climatologico": 48.775,
        "SiteCode": 35,
        "stazioni": "Castelluccio_dei_sauri",
        "SiteName_norm": "Castelluccio_dei_sauri",
        "SiteName": "CASTELLUCCIO_DEI_SAURI",
        "Elevation": 284
      },
      "geometry": {
        "type": "Point",
        "coordinates": [15.4762, 41.3027]
      }
    },
    {
      "type": "Feature",
      "id": 36,
      "properties": {
        "mm": 5,
        "SiteID": 36,
        "climatologico": 42.4667,
        "SiteCode": 36,
        "stazioni": "Ceglie_messapica",
        "SiteName_norm": "Ceglie_messapica",
        "SiteName": "CEGLIE_MESSAPICA",
        "Elevation": 286
      },
      "geometry": {
        "type": "Point",
        "coordinates": [17.5182, 40.6452]
      }
    },
    {
      "type": "Feature",
      "id": 37,
      "properties": {
        "mm": 5,
        "SiteID": 41,
        "climatologico": 30.8333,
        "SiteCode": 41,
        "stazioni": "Copertino",
        "SiteName_norm": "Copertino",
        "SiteName": "COPERTINO",
        "Elevation": 48
      },
      "geometry": {
        "type": "Point",
        "coordinates": [18.0516, 40.2684]
      }
    },
    {
      "type": "Feature",
      "id": 38,
      "properties": {
        "mm": 5,
        "SiteID": 42,
        "climatologico": 40.2417,
        "SiteCode": 42,
        "stazioni": "Corato",
        "SiteName_norm": "Corato",
        "SiteName": "CORATO",
        "Elevation": 249
      },
      "geometry": {
        "type": "Point",
        "coordinates": [16.4133, 41.1528]
      }
    },
    {
      "type": "Feature",
      "id": 39,
      "properties": {
        "mm": 5,
        "SiteID": 5,
        "climatologico": 40.3667,
        "SiteCode": 5,
        "stazioni": "Andria",
        "SiteName_norm": "Andria",
        "SiteName": "ANDRIA",
        "Elevation": 162
      },
      "geometry": {
        "type": "Point",
        "coordinates": [16.2942, 41.2205]
      }
    },
    {
      "type": "Feature",
      "id": 40,
      "properties": {
        "mm": 5,
        "SiteID": 50,
        "climatologico": 38.8333,
        "SiteCode": 50,
        "stazioni": "Fasano",
        "SiteName_norm": "Fasano",
        "SiteName": "FASANO",
        "Elevation": 121
      },
      "geometry": {
        "type": "Point",
        "coordinates": [17.3583, 40.838]
      }
    },
    {
      "type": "Feature",
      "id": 41,
      "properties": {
        "mm": 5,
        "SiteID": 54,
        "climatologico": 49.825,
        "SiteCode": 54,
        "stazioni": "Forenza",
        "SiteName_norm": "Forenza",
        "SiteName": "FORENZA",
        "Elevation": 753
      },
      "geometry": {
        "type": "Point",
        "coordinates": [15.8481, 40.8586]
      }
    },
    {
      "type": "Feature",
      "id": 42,
      "properties": {
        "mm": 5,
        "SiteID": 58,
        "climatologico": 29.5429,
        "SiteCode": 58,
        "stazioni": "Ginosa_marina",
        "SiteName_norm": "Ginosa_marina",
        "SiteName": "GINOSA_MARINA",
        "Elevation": 20
      },
      "geometry": {
        "type": "Point",
        "coordinates": [16.8844, 40.4266]
      }
    },
    {
      "type": "Feature",
      "id": 43,
      "properties": {
        "mm": 5,
        "SiteID": 61,
        "climatologico": 36.075,
        "SiteCode": 61,
        "stazioni": "Grottaglie",
        "SiteName_norm": "Grottaglie",
        "SiteName": "GROTTAGLIE",
        "Elevation": 140
      },
      "geometry": {
        "type": "Point",
        "coordinates": [17.4414, 40.5393]
      }
    },
    {
      "type": "Feature",
      "id": 44,
      "properties": {
        "mm": 5,
        "SiteID": 64,
        "climatologico": 63.0667,
        "SiteCode": 64,
        "stazioni": "Lagopesole",
        "SiteName_norm": "Lagopesole",
        "SiteName": "LAGOPESOLE",
        "Elevation": 782
      },
      "geometry": {
        "type": "Point",
        "coordinates": [15.7358, 40.803]
      }
    },
    {
      "type": "Feature",
      "id": 45,
      "properties": {
        "mm": 5,
        "SiteID": 65,
        "climatologico": 43.8917,
        "SiteCode": 65,
        "stazioni": "Latiano",
        "SiteName_norm": "Latiano",
        "SiteName": "LATIANO",
        "Elevation": 107
      },
      "geometry": {
        "type": "Point",
        "coordinates": [17.7098, 40.5486]
      }
    },
    {
      "type": "Feature",
      "id": 46,
      "properties": {
        "mm": 5,
        "SiteID": 66,
        "climatologico": 50.4833,
        "SiteCode": 66,
        "stazioni": "Lavello",
        "SiteName_norm": "Lavello",
        "SiteName": "LAVELLO",
        "Elevation": 328
      },
      "geometry": {
        "type": "Point",
        "coordinates": [15.7952, 41.0508]
      }
    },
    {
      "type": "Feature",
      "id": 47,
      "properties": {
        "mm": 5,
        "SiteID": 67,
        "climatologico": 32.9333,
        "SiteCode": 67,
        "stazioni": "Lecce",
        "SiteName_norm": "Lecce",
        "SiteName": "LECCE",
        "Elevation": 50
      },
      "geometry": {
        "type": "Point",
        "coordinates": [18.1675, 40.3583]
      }
    },
    {
      "type": "Feature",
      "id": 48,
      "properties": {
        "mm": 5,
        "SiteID": 71,
        "climatologico": 39.1167,
        "SiteCode": 71,
        "stazioni": "Locorotondo",
        "SiteName_norm": "Locorotondo",
        "SiteName": "LOCOROTONDO",
        "Elevation": 404
      },
      "geometry": {
        "type": "Point",
        "coordinates": [17.3382, 40.7534]
      }
    },
    {
      "type": "Feature",
      "id": 49,
      "properties": {
        "mm": 5,
        "SiteID": 73,
        "climatologico": 40.775,
        "SiteCode": 73,
        "stazioni": "Maglie",
        "SiteName_norm": "Maglie",
        "SiteName": "MAGLIE",
        "Elevation": 102
      },
      "geometry": {
        "type": "Point",
        "coordinates": [18.2936, 40.119]
      }
    },
    {
      "type": "Feature",
      "id": 50,
      "properties": {
        "mm": 5,
        "SiteID": 74,
        "climatologico": 38.9167,
        "SiteCode": 74,
        "stazioni": "Manduria",
        "SiteName_norm": "Manduria",
        "SiteName": "MANDURIA",
        "Elevation": 81
      },
      "geometry": {
        "type": "Point",
        "coordinates": [17.6352, 40.398]
      }
    },
    {
      "type": "Feature",
      "id": 51,
      "properties": {
        "mm": 5,
        "SiteID": 75,
        "climatologico": 34.0167,
        "SiteCode": 75,
        "stazioni": "Manfredonia_(bonifica_sipontina)",
        "SiteName_norm": "Manfredonia-bonifica_sipontina",
        "SiteName": "MANFREDONIA-BONIFICA_SIPONTINA",
        "Elevation": 2
      },
      "geometry": {
        "type": "Point",
        "coordinates": [15.8802, 41.5831]
      }
    },
    {
      "type": "Feature",
      "id": 52,
      "properties": {
        "mm": 5,
        "SiteID": 77,
        "climatologico": 29.1167,
        "SiteCode": 77,
        "stazioni": "Massafra",
        "SiteName_norm": "Massafra",
        "SiteName": "MASSAFRA",
        "Elevation": 110
      },
      "geometry": {
        "type": "Point",
        "coordinates": [17.1084, 40.5755]
      }
    },
    {
      "type": "Feature",
      "id": 53,
      "properties": {
        "mm": 5,
        "SiteID": 8,
        "climatologico": 46.3083,
        "SiteCode": 8,
        "stazioni": "Ascoli_satriano",
        "SiteName_norm": "Ascoli_satriano",
        "SiteName": "ASCOLI_SATRIANO",
        "Elevation": 437
      },
      "geometry": {
        "type": "Point",
        "coordinates": [15.5646, 41.2012]
      }
    },
    {
      "type": "Feature",
      "id": 54,
      "properties": {
        "mm": 5,
        "SiteID": 82,
        "climatologico": 32.2333,
        "SiteCode": 82,
        "stazioni": "Masseria_monteruga",
        "SiteName_norm": "Masseria_monteruga",
        "SiteName": "MASSERIA_MONTERUGA",
        "Elevation": 92
      },
      "geometry": {
        "type": "Point",
        "coordinates": [17.8288, 40.3468]
      }
    },
    {
      "type": "Feature",
      "id": 55,
      "properties": {
        "mm": 5,
        "SiteID": 84,
        "climatologico": 25.9667,
        "SiteCode": 84,
        "stazioni": "Masseria_santa_chiara",
        "SiteName_norm": "Masseria_s._chiara",
        "SiteName": "MASSERIA_S._CHIARA",
        "Elevation": 9
      },
      "geometry": {
        "type": "Point",
        "coordinates": [16.1344, 41.3364]
      }
    },
    {
      "type": "Feature",
      "id": 56,
      "properties": {
        "mm": 5,
        "SiteID": 86,
        "climatologico": 58.5083,
        "SiteCode": 86,
        "stazioni": "Melfi",
        "SiteName_norm": "Melfi",
        "SiteName": "MELFI",
        "Elevation": 533
      },
      "geometry": {
        "type": "Point",
        "coordinates": [15.6272, 40.9891]
      }
    },
    {
      "type": "Feature",
      "id": 57,
      "properties": {
        "mm": 5,
        "SiteID": 87,
        "climatologico": 43.0833,
        "SiteCode": 87,
        "stazioni": "Mercadante",
        "SiteName_norm": "Mercadante",
        "SiteName": "MERCADANTE",
        "Elevation": 393
      },
      "geometry": {
        "type": "Point",
        "coordinates": [16.7006, 40.8897]
      }
    },
    {
      "type": "Feature",
      "id": 58,
      "properties": {
        "mm": 5,
        "SiteID": 89,
        "climatologico": 54.9,
        "SiteCode": 89,
        "stazioni": "Minervino_murge",
        "SiteName_norm": "Minervino_murge",
        "SiteName": "MINERVINO_MURGE",
        "Elevation": 454
      },
      "geometry": {
        "type": "Point",
        "coordinates": [16.084, 41.075]
      }
    },
    {
      "type": "Feature",
      "id": 59,
      "properties": {
        "mm": 5,
        "SiteID": 9,
        "climatologico": 51.65,
        "SiteCode": 9,
        "stazioni": "Atella",
        "SiteName_norm": "Atella",
        "SiteName": "ATELLA",
        "Elevation": 495
      },
      "geometry": {
        "type": "Point",
        "coordinates": [15.6524, 40.8727]
      }
    },
    {
      "type": "Feature",
      "id": 60,
      "properties": {
        "mm": 5,
        "SiteID": 90,
        "climatologico": 59.3083,
        "SiteCode": 90,
        "stazioni": "Monteleone_di_puglia",
        "SiteName_norm": "Monteleone_di_puglia",
        "SiteName": "MONTELEONE_DI_PUGLIA",
        "Elevation": 844
      },
      "geometry": {
        "type": "Point",
        "coordinates": [15.2587, 41.1638]
      }
    },
    {
      "type": "Feature",
      "id": 61,
      "properties": {
        "mm": 5,
        "SiteID": 92,
        "climatologico": 47.9167,
        "SiteCode": 92,
        "stazioni": "Monte_sant'angelo",
        "SiteName_norm": "Monte_s._angelo",
        "SiteName": "MONTE_S._ANGELO",
        "Elevation": 817
      },
      "geometry": {
        "type": "Point",
        "coordinates": [15.9618, 41.7055]
      }
    },
    {
      "type": "Feature",
      "id": 62,
      "properties": {
        "mm": 5,
        "SiteID": 97,
        "climatologico": 31.0333,
        "SiteCode": 97,
        "stazioni": "Nardo'",
        "SiteName_norm": "Nardo",
        "SiteName": "NARDO",
        "Elevation": 52
      },
      "geometry": {
        "type": "Point",
        "coordinates": [18.0338, 40.1728]
      }
    },
    {
      "type": "Feature",
      "id": 63,
      "properties": {
        "mm": 5,
        "SiteID": 98,
        "climatologico": 43.6333,
        "SiteCode": 98,
        "stazioni": "Noci",
        "SiteName_norm": "Noci",
        "SiteName": "NOCI",
        "Elevation": 431
      },
      "geometry": {
        "type": "Point",
        "coordinates": [17.1229, 40.7953]
      }
    },
    {
      "type": "Feature",
      "id": 64,
      "properties": {
        "mm": 5,
        "SiteID": 99,
        "climatologico": 35.8083,
        "SiteCode": 99,
        "stazioni": "Novoli",
        "SiteName_norm": "Novoli",
        "SiteName": "NOVOLI",
        "Elevation": 51
      },
      "geometry": {
        "type": "Point",
        "coordinates": [18.0512, 40.3781]
      }
    }
  ]
} 
